[{"site":"Brisbane","lat":-27.469309,"long":153.026164,"pop":"2514184","com":"success"},
{"site":"Wynnum","lat":-27.439406,"long":153.174385,"pop":"12915","com":"doubt"},
{"site":"Gold Coast","lat":-28.058022,"long":153.333977,"pop":"620518","com":"doubt"},
{"site":"Logan","lat":-27.777847,"long":153.03662,"pop":"326615","com":"doubt"},
{"site":"Beenleigh","lat":-27.712862,"long":153.191972,"pop":"8252","com":"doubt"},
{"site":"Jimboomba","lat":-27.82859,"long":153.008889,"pop":"13201","com":"success"},
{"site":"Yarrabilba","lat":-23.033708,"long":144.417144,"pop":"5000","com":"doubt"},
{"site":"Logan Village","lat":-27.777603,"long":153.119238,"pop":"3586","com":"success"},
{"site":"Scenic Rim","lat":-28.096082,"long":152.788409,"pop":"42583","com":"doubt"},
{"site":"Tamborine","lat":-27.884773,"long":153.138,"pop":"7506","com":"success"},
{"site":"Beaudesert","lat":-27.990874,"long":152.996829,"pop":"6395","com":"success"},
{"site":"Boonah","lat":-27.995492,"long":152.689792,"pop":"2484","com":"success"},
{"site":"Gleneagle","lat":-27.94458,"long":152.993138,"pop":"1877","com":"success"},
{"site":"Kooralbyn","lat":-28.083527,"long":152.848598,"pop":"1725","com":"success"},
{"site":"Canungra","lat":-28.017969,"long":153.165073,"pop":"1229","com":"success"},
{"site":"Kalbar","lat":-27.940252,"long":152.626595,"pop":"1093","com":"success"},
{"site":"Peak Crossing","lat":-27.783869,"long":152.725557,"pop":"965","com":"success"},
{"site":"Beechmont","lat":-28.09452,"long":153.208966,"pop":"842","com":"success"},
{"site":"Boyland","lat":-27.937092,"long":153.129505,"pop":"823","com":"success"},
{"site":"Harrisville","lat":-27.810752,"long":152.670274,"pop":"613","com":"success"},
{"site":"Dugandan","lat":-28.013719,"long":152.678317,"pop":"593","com":"success"},
{"site":"Aratula","lat":-27.988253,"long":152.548173,"pop":"532","com":"success"},
{"site":"Ipswich","lat":-27.644547,"long":152.669805,"pop":"200000","com":"doubt"},
{"site":"Springfield","lat":-27.651189,"long":152.910389,"pop":"11000","com":"doubt"},
{"site":"Ripley","lat":-27.669782,"long":152.782082,"pop":"5000","com":"success"},
{"site":"Rosewood","lat":-27.637307,"long":152.589875,"pop":"2834","com":"success"},
{"site":"Walloon","lat":-27.602894,"long":152.659907,"pop":"1588","com":"success"},
{"site":"Willowbank","lat":-27.68453,"long":152.67356,"pop":"1315","com":"doubt"},
{"site":"Marburg","lat":-27.570719,"long":152.599094,"pop":"873","com":"success"},
{"site":"Purga","lat":-27.731955,"long":152.728451,"pop":"576","com":"success"},
{"site":"Grandchester","lat":-27.683471,"long":152.443561,"pop":"504","com":"success"},
{"site":"Redland","lat":-27.533006,"long":153.453216,"pop":"156863","com":"doubt"},
{"site":"Capalaba","lat":-27.532079,"long":153.189961,"pop":"17333","com":"doubt"},
{"site":"Thornlands","lat":-27.565703,"long":153.26143,"pop":"14694","com":"doubt"},
{"site":"Cleveland","lat":-27.535449,"long":153.267693,"pop":"14801","com":"success"},
{"site":"Redland Bay","lat":-27.635704,"long":153.28743,"pop":"14958","com":"success"},
{"site":"Ormiston","lat":-27.516888,"long":153.254355,"pop":"5793","com":"doubt"},
{"site":"Macleay Island","lat":-27.623632,"long":153.364643,"pop":"2681","com":"success"},
{"site":"Russell Island","lat":-27.695601,"long":153.380487,"pop":"2836","com":"success"},
{"site":"North Stradbroke Island","lat":-27.530906,"long":153.453054,"pop":"2102","com":"success"},
{"site":"Coochiemudlo","lat":-23.033708,"long":144.417144,"pop":"753","com":"doubt"},
{"site":"Lamb Island","lat":-27.625871,"long":153.378663,"pop":"432","com":"success"},
{"site":"Moreton Bay","lat":-27.119285,"long":152.884703,"pop":"346676","com":"doubt"},
{"site":"Redcliffe","lat":-27.227093,"long":153.106525,"pop":"59469","com":"doubt"},
{"site":"Caboolture","lat":-27.065576,"long":152.975274,"pop":"67460","com":"doubt"},
{"site":"Bribie Island","lat":-23.033708,"long":144.417144,"pop":"18189","com":"doubt"},
{"site":"Kallangur","lat":-27.246808,"long":152.990449,"pop":"20405","com":"doubt"},
{"site":"Burpengary","lat":-27.156911,"long":152.964268,"pop":"14022","com":"doubt"},
{"site":"Narangba","lat":-27.180711,"long":152.939245,"pop":"18573","com":"doubt"},
{"site":"North Lakes","lat":-27.222956,"long":153.01207,"pop":"21671","com":"doubt"},
{"site":"Strathpine","lat":-27.30041,"long":152.991153,"pop":"9503","com":"doubt"},
{"site":"Petrie","lat":-27.263517,"long":152.968918,"pop":"8674","com":"doubt"},
{"site":"Woodford","lat":-26.96206,"long":152.763518,"pop":"3458","com":"success"},
{"site":"Beachmere","lat":-27.132954,"long":153.046645,"pop":"4112","com":"doubt"},
{"site":"Samford","lat":-27.415251,"long":153.012833,"pop":"3068","com":"doubt"},
{"site":"Wamuran","lat":-27.047071,"long":152.870678,"pop":"3196","com":"success"},
{"site":"Albany Creek","lat":-27.350985,"long":152.965869,"pop":"15769","com":"doubt"},
{"site":"Ferny Hills","lat":-27.386759,"long":152.912887,"pop":"8739","com":"doubt"},
{"site":"Eatons Hill","lat":-27.339181,"long":152.934934,"pop":"7973","com":"doubt"},
{"site":"Arana Hills","lat":-27.390659,"long":152.953379,"pop":"6810","com":"doubt"},
{"site":"Everton Hills","lat":-27.388011,"long":152.970006,"pop":"5938","com":"doubt"},
{"site":"Dayboro","lat":-27.193013,"long":152.821293,"pop":"2119","com":"doubt"},
{"site":"D'Aguilar","lat":-26.982807,"long":152.800618,"pop":"1207","com":"success"},
{"site":"Toowoomba","lat":-27.625351,"long":151.585907,"pop":"135631","com":"doubt"},
{"site":"Highfields","lat":-27.458386,"long":151.945072,"pop":"8131","com":"success"},
{"site":"Oakey","lat":-27.441757,"long":151.714371,"pop":"4529","com":"success"},
{"site":"Pittsworth","lat":-27.711118,"long":151.630617,"pop":"3294","com":"success"},
{"site":"Meringandan","lat":-27.422617,"long":151.893971,"pop":"1474","com":"success"},
{"site":"Kingsthorpe","lat":-27.473319,"long":151.820413,"pop":"1820","com":"success"},
{"site":"Crows Nest","lat":-27.267784,"long":152.054118,"pop":"2160","com":"success"},
{"site":"Milmerran","lat":-23.033708,"long":144.417144,"pop":"1566","com":"doubt"},
{"site":"Wyreema","lat":-27.659523,"long":151.861923,"pop":"1834","com":"success"},
{"site":"Clifton","lat":-27.930548,"long":151.904737,"pop":"1456","com":"success"},
{"site":"Yarraman","lat":-26.841788,"long":151.984565,"pop":"1230","com":"success"},
{"site":"Cambooya","lat":-27.709851,"long":151.861875,"pop":"1584","com":"success"},
{"site":"Hampton","lat":-27.370202,"long":152.069733,"pop":"345","com":"success"},
{"site":"Nobby","lat":-27.83889,"long":151.891996,"pop":"484","com":"success"},
{"site":"Greenmount","lat":-27.784282,"long":151.905496,"pop":"336","com":"success"},
{"site":"Cecil Plains","lat":-27.536794,"long":151.190644,"pop":"678","com":"success"},
{"site":"Warwick","lat":-28.216157,"long":152.027697,"pop":"15130","com":"success"},
{"site":"Stanthorpe","lat":-28.651626,"long":151.930242,"pop":"5406","com":"success"},
{"site":"Allora","lat":-28.035216,"long":151.980881,"pop":"923","com":"success"},
{"site":"Killarney","lat":-28.335754,"long":152.298631,"pop":"831","com":"success"},
{"site":"Applethorpe","lat":-28.609557,"long":151.931967,"pop":"748","com":"success"},
{"site":"Broadwater","lat":-28.658693,"long":151.869578,"pop":"687","com":"success"},
{"site":"Maryvale","lat":-28.054431,"long":152.307117,"pop":"567","com":"success"},
{"site":"Thulimbah","lat":-28.550134,"long":151.93573,"pop":"534","com":"success"},
{"site":"Wallangarra","lat":-28.919745,"long":151.929993,"pop":"385","com":"success"},
{"site":"Leyburn","lat":-28.024741,"long":151.59655,"pop":"384","com":"success"},
{"site":"Dalby","lat":-27.178814,"long":151.26522,"pop":"12765","com":"success"},
{"site":"Chinchilla","lat":-26.747306,"long":150.628542,"pop":"6612","com":"success"},
{"site":"Miles","lat":-26.656137,"long":150.189227,"pop":"1746","com":"success"},
{"site":"Tara","lat":-27.280931,"long":150.456867,"pop":"2297","com":"success"},
{"site":"Jandowae","lat":-26.781431,"long":151.111022,"pop":"1047","com":"success"},
{"site":"Brigalow","lat":-26.880567,"long":150.747957,"pop":"170","com":"success"},
{"site":"Wandoan","lat":-26.120762,"long":149.963381,"pop":"566","com":"success"},
{"site":"Kaimkillenbun","lat":-27.053219,"long":151.467153,"pop":"293","com":"success"},
{"site":"Bell","lat":-26.930841,"long":151.450437,"pop":"502","com":"success"},
{"site":"Drillham","lat":-26.522815,"long":149.886595,"pop":"126","com":"success"},
{"site":"Goondiwindi","lat":-28.533238,"long":150.311455,"pop":"6355","com":"success"},
{"site":"Inglewood","lat":-28.413724,"long":151.085822,"pop":"954","com":"success"},
{"site":"Texas","lat":-28.858217,"long":151.173171,"pop":"843","com":"success"},
{"site":"Roma","lat":-26.571855,"long":148.78521,"pop":"6848","com":"success"},
{"site":"StGeorge","lat":-16.921203,"long":145.773706,"pop":"3048","com":"success"},
{"site":"Mitchell","lat":-26.483629,"long":147.969967,"pop":"1031","com":"success"},
{"site":"Mungindi","lat":-23.033708,"long":144.417144,"pop":"804","com":"doubt"},
{"site":"Dirranbandi","lat":-28.575701,"long":148.231708,"pop":"640","com":"success"},
{"site":"Surat","lat":-27.154197,"long":149.060738,"pop":"407","com":"success"},
{"site":"Injune","lat":-25.845717,"long":148.562451,"pop":"461","com":"success"},
{"site":"Bollon","lat":-28.310138,"long":147.289838,"pop":"221","com":"success"},
{"site":"Charleville","lat":-26.405877,"long":146.243349,"pop":"3335","com":"success"},
{"site":"Cunnamulla","lat":-28.070781,"long":145.690756,"pop":"1140","com":"success"},
{"site":"Quilpie","lat":-26.444739,"long":143.921434,"pop":"595","com":"doubt"},
{"site":"Augathella","lat":-25.79577,"long":146.584475,"pop":"449","com":"success"},
{"site":"Thargomindah","lat":-27.99243,"long":143.819265,"pop":"270","com":"success"},
{"site":"Sunshine Coast","lat":-26.649174,"long":152.913424,"pop":"294367","com":"doubt"},
{"site":"Caloundra","lat":-26.799526,"long":153.126497,"pop":"51095","com":"success"},
{"site":"Buderim","lat":-26.686814,"long":153.061843,"pop":"39911","com":"doubt"},
{"site":"Kawana Waters","lat":-23.339922,"long":150.504706,"pop":"23932","com":"doubt"},
{"site":"Coolum","lat":-23.033708,"long":144.417144,"pop":"8497","com":"doubt"},
{"site":"Maroochydore","lat":-26.654471,"long":153.080626,"pop":"17500","com":"success"},
{"site":"Nambour","lat":-26.623002,"long":152.962396,"pop":"13800","com":"success"},
{"site":"Beerwah","lat":-26.85548,"long":152.952637,"pop":"6769","com":"success"},
{"site":"Palmwoods","lat":-26.691119,"long":152.955663,"pop":"5492","com":"success"},
{"site":"Glasshouse Mountains","lat":-26.899363,"long":152.956307,"pop":"4791","com":"success"},
{"site":"Yandina","lat":-26.559319,"long":152.95191,"pop":"3859","com":"success"},
{"site":"Woombye ","lat":-26.651564,"long":152.962477,"pop":"3246","com":"success"},
{"site":"Landsborough","lat":-26.814414,"long":152.965903,"pop":"2805","com":"success"},
{"site":"Eumundi","lat":-26.477102,"long":152.949524,"pop":"1924","com":"success"},
{"site":"Maleny ","lat":-26.757526,"long":152.848191,"pop":"1294","com":"success"},
{"site":"Montville","lat":-26.701641,"long":152.90003,"pop":"853","com":"success"},
{"site":"Noosa","lat":-26.396365,"long":153.090642,"pop":"56151","com":"success"},
{"site":"Pomona","lat":-26.365905,"long":152.857745,"pop":"1004","com":"success"},
{"site":"Cooroy","lat":-26.414307,"long":152.91106,"pop":"3791","com":"success"},
{"site":"Hervey Bay","lat":-25.288703,"long":152.840944,"pop":"60000","com":"success"},
{"site":"Maryborough","lat":-25.527814,"long":152.693741,"pop":"21501","com":"success"},
{"site":"Torquay","lat":-25.29199,"long":152.868311,"pop":"5693","com":"doubt"},
{"site":"Howard","lat":-25.320932,"long":152.571252,"pop":"1071","com":"success"},
{"site":"Fraser Island","lat":-25.226406,"long":153.145921,"pop":"360","com":"success"},
{"site":"Bundaberg","lat":-24.983725,"long":152.153072,"pop":"46961","com":"doubt"},
{"site":"Bargara","lat":-24.82984,"long":152.459575,"pop":"5525","com":"success"},
{"site":"Burnett Heads","lat":-24.768488,"long":152.395737,"pop":"2065","com":"success"},
{"site":"Innes Park","lat":-24.870474,"long":152.467042,"pop":"1659","com":"success"},
{"site":"MoorePark","lat":-23.033708,"long":144.417144,"pop":"1599","com":"doubt"},
{"site":"Childers","lat":-25.235376,"long":152.277601,"pop":"1350","com":"success"},
{"site":"Woodgate Beach","lat":-25.108956,"long":152.564196,"pop":"1000","com":"success"},
{"site":"GinGin","lat":-23.033708,"long":144.417144,"pop":"892","com":"doubt"},
{"site":"Elliott Heads","lat":-24.905157,"long":152.488212,"pop":"810","com":"success"},
{"site":"Gayndah","lat":-25.626365,"long":151.608709,"pop":"1745","com":"success"},
{"site":"Monto","lat":-24.862348,"long":151.123121,"pop":"1159","com":"success"},
{"site":"Mundubbera","lat":-25.585036,"long":151.30039,"pop":"1053","com":"success"},
{"site":"Kingaroy","lat":-26.537388,"long":151.841133,"pop":"7620","com":"success"},
{"site":"Nanango","lat":-26.67939,"long":151.989608,"pop":"3083","com":"success"},
{"site":"Murgon","lat":-26.242205,"long":151.946107,"pop":"2131","com":"success"},
{"site":"Wondai","lat":-26.320262,"long":151.875297,"pop":"1402","com":"success"},
{"site":"Gympie","lat":-26.182873,"long":152.665451,"pop":"16454","com":"success"},
{"site":"TinCan Bay","lat":-23.033708,"long":144.417144,"pop":"1918","com":"doubt"},
{"site":"Rainbow Beach","lat":-25.904679,"long":153.087547,"pop":"999","com":"success"},
{"site":"Rockhampton","lat":-23.10266,"long":150.252476,"pop":"74530","com":"doubt"},
{"site":"Yeppoon","lat":-23.129481,"long":150.738213,"pop":"13285","com":"success"},
{"site":"Gracemere","lat":-23.450173,"long":150.450477,"pop":"4454","com":"success"},
{"site":"Mount Morgan","lat":-23.644068,"long":150.392629,"pop":"2984","com":"success"},
{"site":"Emu Park","lat":-23.245756,"long":150.819856,"pop":"2967","com":"doubt"},
{"site":"Emerald","lat":-23.521647,"long":148.157506,"pop":"10999","com":"success"},
{"site":"Blackwater","lat":-23.579705,"long":148.888552,"pop":"5031","com":"success"},
{"site":"Tieri","lat":-23.035979,"long":148.356509,"pop":"1679","com":"success"},
{"site":"Springsure","lat":-24.117861,"long":148.08647,"pop":"1150","com":"success"},
{"site":"Capella","lat":-23.081287,"long":148.024756,"pop":"796","com":"success"},
{"site":"Longreach","lat":-23.470211,"long":143.960227,"pop":"2976","com":"doubt"},
{"site":"Barcaldine","lat":-23.106634,"long":145.666114,"pop":"1497","com":"doubt"},
{"site":"Blackall","lat":-24.425655,"long":145.468417,"pop":"1160","com":"success"},
{"site":"Woorabinda","lat":-24.143698,"long":149.453958,"pop":"1000","com":"doubt"},
{"site":"Winton","lat":-22.59604,"long":142.272575,"pop":"980","com":"doubt"},
{"site":"Boulia","lat":-22.58225,"long":138.727332,"pop":"288","com":"doubt"},
{"site":"Barcoo","lat":-24.992903,"long":142.417156,"pop":"369","com":"success"},
{"site":"Diamantina","lat":-24.836259,"long":139.564401,"pop":"401","com":"doubt"},
{"site":"Gladstone","lat":-24.148797,"long":151.182876,"pop":"29288","com":"doubt"},
{"site":"Tannum Sands","lat":-23.951183,"long":151.367977,"pop":"4139","com":"success"},
{"site":"Boyne Island","lat":-23.949753,"long":151.347632,"pop":"3687","com":"success"},
{"site":"Agnes Water","lat":-24.231948,"long":151.904501,"pop":"3000","com":"success"},
{"site":"Calliope","lat":-24.005492,"long":151.202562,"pop":"1550","com":"success"},
{"site":"Town of 1770","lat":-24.171286,"long":151.883136,"pop":"221","com":"success"},
{"site":"Biloela","lat":-24.398231,"long":150.517332,"pop":"5447","com":"success"},
{"site":"Moura","lat":-24.555748,"long":149.977878,"pop":"1774","com":"success"},
{"site":"Mackay","lat":-21.144192,"long":149.182075,"pop":"81148","com":"success"},
{"site":"Slade Point","lat":-21.085376,"long":149.206636,"pop":"4000","com":"doubt"},
{"site":"Sarina","lat":-21.418922,"long":149.223445,"pop":"2964","com":"success"},
{"site":"Hay Point","lat":-21.296626,"long":149.273418,"pop":"1386","com":"doubt"},
{"site":"Bowen","lat":-20.00205,"long":148.244398,"pop":"7484","com":"success"},
{"site":"Proserpine","lat":-20.402717,"long":148.582102,"pop":"3316","com":"success"},
{"site":"Airlie Beach","lat":-20.272893,"long":148.716829,"pop":"3017","com":"success"},
{"site":"Collinsville","lat":-20.552459,"long":147.846312,"pop":"2063","com":"success"},
{"site":"Hamilton Island","lat":-27.437622,"long":153.060796,"pop":"1347","com":"doubt"},
{"site":"Moranbah","lat":-22.000963,"long":148.051951,"pop":"8000","com":"success"},
{"site":"Dysart","lat":-22.587305,"long":148.350341,"pop":"2460","com":"success"},
{"site":"Middlemount","lat":-22.812957,"long":148.700495,"pop":"2038","com":"success"},
{"site":"Clermont","lat":-22.830302,"long":147.633573,"pop":"1854","com":"success"},
{"site":"Townsville","lat":-19.500216,"long":146.798414,"pop":"181743","com":"doubt"},
{"site":"Magnetic Island","lat":-23.033708,"long":144.417144,"pop":"2107","com":"success"},
{"site":"Palm Island","lat":-18.733052,"long":146.606757,"pop":"1984","com":"doubt"},
{"site":"Ayr","lat":-19.570167,"long":147.40516,"pop":"8334","com":"success"},
{"site":"Home Hill","lat":-19.660004,"long":147.411825,"pop":"2907","com":"success"},
{"site":"Ingham","lat":-18.65683,"long":146.15351,"pop":"4662","com":"success"},
{"site":"Lucinda","lat":-18.528637,"long":146.330506,"pop":"448","com":"success"},
{"site":"Mount Isa","lat":-20.033321,"long":138.767843,"pop":"24027","com":"doubt"},
{"site":"Camooweal","lat":-19.915332,"long":138.124263,"pop":"236","com":"success"},
{"site":"Cloncurry","lat":-21.061586,"long":140.265726,"pop":"2384","com":"doubt"},
{"site":"Charters Towers","lat":-20.031713,"long":145.788548,"pop":"8846","com":"doubt"},
{"site":"Hughenden","lat":-20.832882,"long":144.213013,"pop":"1154","com":"success"},
{"site":"Richmond","lat":-20.482566,"long":142.917438,"pop":"554","com":"doubt"},
{"site":"Julia Creek","lat":-20.656838,"long":141.744222,"pop":"506","com":"success"},
{"site":"Mareeba","lat":-17.002517,"long":145.422075,"pop":"6883","com":"success"},
{"site":"Atherton","lat":-17.264326,"long":145.485171,"pop":"5800","com":"success"},
{"site":"Kuranda","lat":-16.829588,"long":145.630553,"pop":"1428","com":"success"},
{"site":"Malanda","lat":-17.355262,"long":145.597152,"pop":"1012","com":"success"},
{"site":"Yungaburra","lat":-17.264721,"long":145.586152,"pop":"1007","com":"success"},
{"site":"Herberton","lat":-17.378385,"long":145.383718,"pop":"988","com":"success"},
{"site":"Ravenshoe","lat":-17.610952,"long":145.48649,"pop":"910","com":"success"},
{"site":"Innisfail","lat":-17.521436,"long":146.02668,"pop":"8989","com":"success"},
{"site":"Tully","lat":-17.93387,"long":145.928083,"pop":"2540","com":"success"},
{"site":"Cardwell","lat":-18.268628,"long":146.02553,"pop":"1200","com":"success"},
{"site":"Mission Beach","lat":-17.862799,"long":146.098355,"pop":"989","com":"success"},
{"site":"Cooktown","lat":-15.473957,"long":145.252981,"pop":"1573","com":"success"},
{"site":"Normanton","lat":-17.674032,"long":141.079386,"pop":"1100","com":"success"},
{"site":"Karumba","lat":-17.476548,"long":140.850816,"pop":"518","com":"success"},
{"site":"Weipa","lat":-12.6354,"long":141.870774,"pop":"3000","com":"doubt"},
{"site":"Northern Peninsula","lat":-11.052149,"long":142.266587,"pop":"2264","com":"doubt"},
{"site":"Kowanyama","lat":-15.348002,"long":141.752417,"pop":"1021","com":"doubt"},
{"site":"Mornington Island","lat":-16.552877,"long":139.344861,"pop":"934","com":"doubt"},
{"site":"Doomadgee","lat":-17.709892,"long":138.741336,"pop":"1052","com":"doubt"},
{"site":"Croydon ","lat":-18.222867,"long":141.919044,"pop":"255","com":"doubt"},
{"site":"Georgetown","lat":-18.293359,"long":143.546299,"pop":"254","com":"success"},
{"site":"Cairns","lat":-16.160461,"long":145.269804,"pop":"142518","com":"doubt"},
{"site":"Gordonvale","lat":-17.101669,"long":145.775923,"pop":"4420","com":"success"},
{"site":"Holloways Beach","lat":-16.844476,"long":145.732375,"pop":"3000","com":"doubt"},
{"site":"Yorkeys Knob","lat":-16.826412,"long":145.719885,"pop":"2648","com":"doubt"},
{"site":"Mossman","lat":-16.46638,"long":145.374017,"pop":"1695","com":"success"},
{"site":"Port Douglas","lat":-16.499911,"long":145.462419,"pop":"3205","com":"success"},
{"site":"Palm Cove","lat":-16.749386,"long":145.664068,"pop":"1215","com":"doubt"},
{"site":"Babinda","lat":-17.34725,"long":145.917746,"pop":"1176","com":"success"},
{"site":"Cape Tribulation","lat":-16.131231,"long":145.229972,"pop":"600","com":"success"},
{"site":"Daintree","lat":-16.2593,"long":145.330469,"pop":"78","com":"success"}
]